var bikestations = 
{
   "type": "FeatureCollection",
   "features": [
  {
    "type": "Feature",
    "geometry": {
       "type": "Point",
       "coordinates":  [ -5.93097,54.597175 ]
    },
    "properties": {
    "Dock":3902,
    "Name":"City Hall",
    "StationSize":20,
    "RentalsAugust":800
    }
  },
  {
    "type": "Feature",
    "geometry": {
       "type": "Point",
       "coordinates":  [ -5.92187,54.601309 ]
    },
    "properties": {
    "Dock":3904,
    "Name":"Donegall Quay",
    "StationSize":16,
    "RentalsAugust":450
    }
  },
  {
    "type": "Feature",
    "geometry": {
       "type": "Point",
       "coordinates":  [ -5.924024,54.598224 ]
    },
    "properties": {
    "Dock":3903,
    "Name":"Victoria Square / Victoria Street",
    "StationSize":10,
    "RentalsAugust":900
    }
  },
  {
    "type": "Feature",
    "geometry": {
       "type": "Point",
       "coordinates":  [ -5.923503,54.595158 ]
    },
    "properties": {
    "Dock":3906,
    "Name":"St George's Market / Cromac Square",
    "StationSize":12,
    "RentalsAugust":950
    }
  },
  {
    "type": "Feature",
    "geometry": {
       "type": "Point",
       "coordinates":  [ -5.916438103,54.59533998 ]
    },
    "properties": {
    "Dock":3905,
    "Name":"Central Station / Mays Meadow",
    "StationSize":20,
    "RentalsAugust":400
    }
  },
  {
    "type": "Feature",
    "geometry": {
       "type": "Point",
       "coordinates":  [ -5.91928339,54.59540835 ]
    },
    "properties": {
    "Dock":3930,
    "Name":"Central Station / East Bridge Street",
    "StationSize":20,
    "RentalsAugust":800
    }
  },
  {
    "type": "Feature",
    "geometry": {
       "type": "Point",
       "coordinates":  [ -5.925707817,54.59210767 ]
    },
    "properties": {
    "Dock":3907,
    "Name":"Gasworks (Cromac Street)",
    "StationSize":12,
    "RentalsAugust":800
    }
  },
  {
    "type": "Feature",
    "geometry": {
       "type": "Point",
       "coordinates":  [ -5.933333333,54.58916667 ]
    },
    "properties": {
    "Dock":3909,
    "Name":"Botanic Avenue / Shaftesbury Square",
    "StationSize":16,
    "RentalsAugust":1150
    }
  },
  {
    "type": "Feature",
    "geometry": {
       "type": "Point",
       "coordinates":  [ -5.933173,54.594774 ]
    },
    "properties": {
    "Dock":3910,
    "Name":"Europa Bus Station / Blackstaff Square",
    "StationSize":16,
    "RentalsAugust":500
    }
  },
  {
    "type": "Feature",
    "geometry": {
       "type": "Point",
       "coordinates":  [ -5.934387445,54.59351251 ]
    },
    "properties": {
    "Dock":3911,
    "Name":"Great Victoria Street / Hope Street",
    "StationSize":18,
    "RentalsAugust":400
    }
  },
  {
    "type": "Feature",
    "geometry": {
       "type": "Point",
       "coordinates":  [ -5.933325291,54.60192811 ]
    },
    "properties": {
    "Dock":3913,
    "Name":"Smithfield / Winetavern Street",
    "StationSize":12,
    "RentalsAugust":750
    }
  },
  {
    "type": "Feature",
    "geometry": {
       "type": "Point",
       "coordinates":  [ -5.929348,54.603713 ]
    },
    "properties": {
    "Dock":3914,
    "Name":"Cathedral Gardens / York Street",
    "StationSize":20,
    "RentalsAugust":150
    }
  },
  {
    "type": "Feature",
    "geometry": {
       "type": "Point",
       "coordinates":  [ -5.931710601,54.60551385 ]
    },
    "properties": {
    "Dock":3915,
    "Name":"Carrick Hill/St Patricks Church",
    "StationSize":12,
    "RentalsAugust":300
    }
  },
  {
    "type": "Feature",
    "geometry": {
       "type": "Point",
       "coordinates":  [ -5.925418139,54.60233828 ]
    },
    "properties": {
    "Dock":3916,
    "Name":"Dunbar Link / Gordon Street",
    "StationSize":8,
    "RentalsAugust":300
    }
  },
  {
    "type": "Feature",
    "geometry": {
       "type": "Point",
       "coordinates":  [ -5.928250551,54.60071001 ]
    },
    "properties": {
    "Dock":3917,
    "Name":"North Street / Waring Street",
    "StationSize":16,
    "RentalsAugust":250
    }
  },
  {
    "type": "Feature",
    "geometry": {
       "type": "Point",
       "coordinates":  [ -5.931630135,54.5927728 ]
    },
    "properties": {
    "Dock":3918,
    "Name":"Bankmore Square / Dublin Road",
    "StationSize":16,
    "RentalsAugust":300
    }
  },
  {
    "type": "Feature",
    "geometry": {
       "type": "Point",
       "coordinates":  [ -5.934870243,54.59734139 ]
    },
    "properties": {
    "Dock":3919,
    "Name":"College Square East",
    "StationSize":16,
    "RentalsAugust":600
    }
  },
  {
    "type": "Feature",
    "geometry": {
       "type": "Point",
       "coordinates":  [ -5.936329365,54.59972804 ]
    },
    "properties": {
    "Dock":3920,
    "Name":"Millfield / Divis Street",
    "StationSize":18,
    "RentalsAugust":250
    }
  },
  {
    "type": "Feature",
    "geometry": {
       "type": "Point",
       "coordinates":  [ -5.917124748,54.60386706 ]
    },
    "properties": {
    "Dock":3921,
    "Name":"Odyssey / Sydenham Road",
    "StationSize":22,
    "RentalsAugust":300
    }
  },
  {
    "type": "Feature",
    "geometry": {
       "type": "Point",
       "coordinates":  [ -5.921388889,54.60472222 ]
    },
    "properties": {
    "Dock":3922,
    "Name":"Corporation Square",
    "StationSize":14,
    "RentalsAugust":1850
    }
  },
  {
    "type": "Feature",
    "geometry": {
       "type": "Point",
       "coordinates":  [ -5.9273386,54.59481785 ]
    },
    "properties": {
    "Dock":3923,
    "Name":"Alfred Street / St Malachy's Church",
    "StationSize":14,
    "RentalsAugust":800
    }
  },
  {
    "type": "Feature",
    "geometry": {
       "type": "Point",
       "coordinates":  [ -5.935156,54.588357 ]
    },
    "properties": {
    "Dock":3924,
    "Name":"Bradbury Place",
    "StationSize":16,
    "RentalsAugust":750
    }
  },
  {
    "type": "Feature",
    "geometry": {
       "type": "Point",
       "coordinates":  [ -5.931361914,54.60121341 ]
    },
    "properties": {
    "Dock":3925,
    "Name":"Royal Avenue / Castlecourt",
    "StationSize":12,
    "RentalsAugust":1050
    }
  },
  {
    "type": "Feature",
    "geometry": {
       "type": "Point",
       "coordinates":  [ -5.92705965,54.60105804 ]
    },
    "properties": {
    "Dock":3926,
    "Name":"Cotton Court / Waring Street",
    "StationSize":12,
    "RentalsAugust":300
    }
  },
  {
    "type": "Feature",
    "geometry": {
       "type": "Point",
       "coordinates":  [ -5.92972,54.602654 ]
    },
    "properties": {
    "Dock":3931,
    "Name":"Writer's Square / St Anne's Cathedral",
    "StationSize":16,
    "RentalsAugust":250
    }
  },
  {
    "type": "Feature",
    "geometry": {
       "type": "Point",
       "coordinates":  [ -5.929892,54.595924 ]
    },
    "properties": {
    "Dock":3928,
    "Name":"Linenhall Street / Donegall Square South",
    "StationSize":16,
    "RentalsAugust":800
    }
  },
  {
    "type": "Feature",
    "geometry": {
       "type": "Point",
       "coordinates":  [ -5.927799,54.597721 ]
    },
    "properties": {
    "Dock":3929,
    "Name":"Arthur Street / Chichester Street",
    "StationSize":18,
    "RentalsAugust":400
    }
  },
  {
    "type": "Feature",
    "geometry": {
       "type": "Point",
       "coordinates":  [ -5.922562,54.591251 ]
    },
    "properties": {
    "Dock":3927,
    "Name":"Gasworks (Lagan Towpath)",
    "StationSize":16,
    "RentalsAugust":850
    }
  },
  {
    "type": "Feature",
    "geometry": {
       "type": "Point",
       "coordinates":  [ -5.921035409,54.5972637 ]
    },
    "properties": {
    "Dock":3908,
    "Name":"Waterfront",
    "StationSize":24,
    "RentalsAugust":400
    }
  },
  {
    "type": "Feature",
    "geometry": {
       "type": "Point",
       "coordinates":  [ -5.93008,54.599298 ]
    },
    "properties": {
    "Dock":3912,
    "Name":"Castle Place / Royal Avenue",
    "StationSize":22,
    "RentalsAugust":300
    }
  }
]
}